Name,Latitude,Longitude
Amsterdam,52.31341935,4.893381875
Rotterdam,51.94090796,4.597807006
Utrecht,52.06221966,5.179573415
Groningen,53.18794248,6.620767866
Arnhem,51.99267949,6.018603437
Zwolle,52.51317167,6.082317235
Lelystad,52.51359868,5.498423836
Maastricht,50.88607158,5.789611331
Eindhoven,51.4568218,5.41926607
Middelburg,51.49808957,3.630064843